var bar={
"type": "FeatureCollection",
"crs": { "type": "name", "properties": { "name": "urn:ogc:def:crs:EPSG::5684" } },                                                                            
"features":[{"type": "Feature", "properties": {"name": "The Keg Bar", "description": "\nBar, Pub "}, "geometry": {"type": "Point", "coordinates": [11.5775404, 48.1364098]}}, {"type": "Feature", "properties": {"name": "Hard Rock Cafe Munich", "description": "\nAmerican Restaurant, Bar, Rock Club "}, "geometry": {"type": "Point", "coordinates": [11.5584011, 48.1444435]}}, {"type": "Feature", "properties": {"name": "The Crowbar", "description": "\nBar "}, "geometry": {"type": "Point", "coordinates": [11.5775404, 48.1364098]}}, {"type": "Feature", "properties": {"name": "Lamberty Brewing", "description": "\nBrewery, Beer Bar "}, "geometry": {"type": "Point", "coordinates": [11.5775404, 48.1364098]}}, {"type": "Feature", "properties": {"name": "Stammbar", "description": "\nPub, Bar "}, "geometry": {"type": "Point", "coordinates": [11.5775404, 48.1364098]}}, {"type": "Feature", "properties": {"name": "Champions Sportsbar", "description": "\nSports Bar, Hotel Bar, Hotel "}, "geometry": {"type": "Point", "coordinates": [11.5775404, 48.1364098]}}, {"type": "Feature", "properties": {"name": "Sport-Café Schiller", "description": "\nSports Bar "}, "geometry": {"type": "Point", "coordinates": [11.5775404, 48.1364098]}}, {"type": "Feature", "properties": {"name": "Euro Youth Hotel (Bar)", "description": "\nHotel Bar, Hostel "}, "geometry": {"type": "Point", "coordinates": [11.5775404, 48.1364098]}}, {"type": "Feature", "properties": {"name": "Giesinger Stehausschank", "description": "\nMusic Venue, Bistro, Beer Bar, Brewery "}, "geometry": {"type": "Point", "coordinates": [11.5775404, 48.1364098]}}, {"type": "Feature", "properties": {"name": "Café Kosmos", "description": "\nBar, Pub "}, "geometry": {"type": "Point", "coordinates": [11.5775404, 48.1364098]}}, {"type": "Feature", "properties": {"name": "Beer & Beer - Hofbräu München", "description": "\nBeer Bar, German Restaurant "}, "geometry": {"type": "Point", "coordinates": [11.5775404, 48.1364098]}}, {"type": "Feature", "properties": {"name": "Paulaner Metropolitan", "description": "\nCocktail Bar "}, "geometry": {"type": "Point", "coordinates": [11.5775404, 48.1364098]}}, {"type": "Feature", "properties": {"name": "München", "description": "\nBrewery, Sports Bar, Bar "}, "geometry": {"type": "Point", "coordinates": [11.5775404, 48.1364098]}}, {"type": "Feature", "properties": {"name": "Juleps New York Bar & Restaurant", "description": "\nSouthern / Soul Food Restaurant, Cocktail Bar "}, "geometry": {"type": "Point", "coordinates": [11.5775404, 48.1364098]}}, {"type": "Feature", "properties": {"name": "Die Goldene Bar", "description": "\nCocktail Bar, Art Museum "}, "geometry": {"type": "Point", "coordinates": [11.5775404, 48.1364098]}}, {"type": "Feature", "properties": {"name": "35 Millimeter", "description": "\nCafé, American Restaurant, Bar "}, "geometry": {"type": "Point", "coordinates": [11.5775404, 48.1364098]}}, {"type": "Feature", "properties": {"name": "Stadion an der Schleißheimer Straße", "description": "\nSports Bar "}, "geometry": {"type": "Point", "coordinates": [11.5775404, 48.1364098]}}, {"type": "Feature", "properties": {"name": "Lenbachs Bar & Galerie", "description": "\nBar, Airport Terminal "}, "geometry": {"type": "Point", "coordinates": [11.5775404, 48.1364098]}}, {"type": "Feature", "properties": {"name": "Erdinger Weißbier Sportsbar", "description": "\nSports Bar, Bistro, Shopping Plaza "}, "geometry": {"type": "Point", "coordinates": [11.5775404, 48.1364098]}}, {"type": "Feature", "properties": {"name": "Leo’s Lounge", "description": "\nCocktail Bar "}, "geometry": {"type": "Point", "coordinates": [11.5775404, 48.1364098]}}, {"type": "Feature", "properties": {"name": "Barschwein", "description": "\nBar, Beer Garden "}, "geometry": {"type": "Point", "coordinates": [11.66148, 48.12507]}}, {"type": "Feature", "properties": {"name": "Wombat's Hostel (Bar)", "description": "\nBar "}, "geometry": {"type": "Point", "coordinates": [11.5775404, 48.1364098]}}, {"type": "Feature", "properties": {"name": "Cafe Cord", "description": "\nBar, Restaurant "}, "geometry": {"type": "Point", "coordinates": [11.5775404, 48.1364098]}}, {"type": "Feature", "properties": {"name": "Trumpf oder Kritisch", "description": "\nGastropub, Bar "}, "geometry": {"type": "Point", "coordinates": [11.5775404, 48.1364098]}}, {"type": "Feature", "properties": {"name": "Café an der Uni - CADU", "description": "\nBar, Café, Breakfast Spot "}, "geometry": {"type": "Point", "coordinates": [11.5775404, 48.1364098]}}, {"type": "Feature", "properties": {"name": "Faun", "description": "\nBar, Café "}, "geometry": {"type": "Point", "coordinates": [11.48085, 48.11402]}}, {"type": "Feature", "properties": {"name": "Augustiner Bürgerheim", "description": "\nBeer Bar, German Restaurant, Beer Garden "}, "geometry": {"type": "Point", "coordinates": [11.5775404, 48.1364098]}}, {"type": "Feature", "properties": {"name": "Die Bierstube", "description": "\nBar, German Restaurant, Pub "}, "geometry": {"type": "Point", "coordinates": [11.5775404, 48.1364098]}}, {"type": "Feature", "properties": {"name": "Scheidegger Brauhaus", "description": "\nBeer Bar, German Restaurant "}, "geometry": {"type": "Point", "coordinates": [11.5775404, 48.1364098]}}, {"type": "Feature", "properties": {"name": "Arts 'n' Boards", "description": "\nRestaurant, Bar, Café "}, "geometry": {"type": "Point", "coordinates": [11.5775404, 48.1364098]}}, {"type": "Feature", "properties": {"name": "Südstadt", "description": "\nPub, Bar, Vegetarian / Vegan Restaurant "}, "geometry": {"type": "Point", "coordinates": [11.5775404, 48.1364098]}}, {"type": "Feature", "properties": {"name": "beach38°", "description": "\nBeach Bar, Cocktail Bar, Volleyball Court "}, "geometry": {"type": "Point", "coordinates": [11.629, 48.11552]}}, {"type": "Feature", "properties": {"name": "malzraum", "description": "\nGerman Restaurant, Beer Bar "}, "geometry": {"type": "Point", "coordinates": [11.5775404, 48.1364098]}}, {"type": "Feature", "properties": {"name": "Niederlassung", "description": "\nBar, Café, Pub "}, "geometry": {"type": "Point", "coordinates": [11.5775404, 48.1364098]}}, {"type": "Feature", "properties": {"name": "The Tent", "description": "\nHostel, Campground, Bar "}, "geometry": {"type": "Point", "coordinates": [11.5775404, 48.1364098]}}, {"type": "Feature", "properties": {"name": "Brasserie Tresznjewski", "description": "\nCafé, Restaurant, Bar "}, "geometry": {"type": "Point", "coordinates": [11.5775404, 48.1364098]}}, {"type": "Feature", "properties": {"name": "Substanz", "description": "\nNightclub, Bar, Music Venue "}, "geometry": {"type": "Point", "coordinates": [11.5775404, 48.1364098]}}, {"type": "Feature", "properties": {"name": "Shakespeare", "description": "\nBar "}, "geometry": {"type": "Point", "coordinates": [11.60805, 48.14262]}}, {"type": "Feature", "properties": {"name": "Café Mozart", "description": "\nCafé, Bar "}, "geometry": {"type": "Point", "coordinates": [11.5775404, 48.1364098]}}, {"type": "Feature", "properties": {"name": "Bistro Organic", "description": "\nSalad Place, Juice Bar, Airport Terminal "}, "geometry": {"type": "Point", "coordinates": [11.5775404, 48.1364098]}}, {"type": "Feature", "properties": {"name": "Geyerwally", "description": "\nBar, Beer Bar "}, "geometry": {"type": "Point", "coordinates": [11.5775404, 48.1364098]}}, {"type": "Feature", "properties": {"name": "Jodlerwirt", "description": "\nPub, Bar, Brewery "}, "geometry": {"type": "Point", "coordinates": [11.5775404, 48.1364098]}}, {"type": "Feature", "properties": {"name": "Kafe Kult", "description": "\nBar "}, "geometry": {"type": "Point", "coordinates": [11.5775404, 48.1364098]}}, {"type": "Feature", "properties": {"name": "Sofa So Good", "description": "\nBar "}, "geometry": {"type": "Point", "coordinates": [11.5775404, 48.1364098]}}, {"type": "Feature", "properties": {"name": "Vereinsheim", "description": "\nComedy Club, Bar "}, "geometry": {"type": "Point", "coordinates": [11.5896101, 48.1619186]}}, {"type": "Feature", "properties": {"name": "55 Eleven", "description": "\nBar, Café, Restaurant "}, "geometry": {"type": "Point", "coordinates": [11.58157, 49.55777]}}, {"type": "Feature", "properties": {"name": "Cafe Voila", "description": "\nBar, Restaurant, Café "}, "geometry": {"type": "Point", "coordinates": [11.5775404, 48.1364098]}}, {"type": "Feature", "properties": {"name": "Bapas", "description": "\nBavarian Restaurant, Café, Bar "}, "geometry": {"type": "Point", "coordinates": [11.5775404, 48.1364098]}}, {"type": "Feature", "properties": {"name": "Le Clou", "description": "\nPub, Bar "}, "geometry": {"type": "Point", "coordinates": [11.5775404, 48.1364098]}}, {"type": "Feature", "properties": {"name": "Executive Lounge", "description": "\nHotel Bar, Hotel "}, "geometry": {"type": "Point", "coordinates": [11.5775404, 48.1364098]}}, {"type": "Feature", "properties": {"name": "Paulaner Fan Treff", "description": "\nSports Bar, Soccer Stadium "}, "geometry": {"type": "Point", "coordinates": [11.5775404, 48.1364098]}}, {"type": "Feature", "properties": {"name": "M.C. Mueller", "description": "\nBar, Burger Joint "}, "geometry": {"type": "Point", "coordinates": [11.57108, 48.13114]}}, {"type": "Feature", "properties": {"name": "Schwabinger Wassermann", "description": "\nBar, German Restaurant "}, "geometry": {"type": "Point", "coordinates": [11.5775404, 48.1364098]}}, {"type": "Feature", "properties": {"name": "Schelling-Salon", "description": "\nBar, German Restaurant "}, "geometry": {"type": "Point", "coordinates": [11.5775404, 48.1364098]}}, {"type": "Feature", "properties": {"name": "Holiday Inn Bar", "description": "\nHotel Bar, Hotel "}, "geometry": {"type": "Point", "coordinates": [11.5775404, 48.1364098]}}, {"type": "Feature", "properties": {"name": "Tassilogarten", "description": "\nRestaurant, Beer Garden, Bar "}, "geometry": {"type": "Point", "coordinates": [11.5775404, 48.1364098]}}, {"type": "Feature", "properties": {"name": "Campus-Cneipe", "description": "\nBar, Performing Arts Venue "}, "geometry": {"type": "Point", "coordinates": [11.5775404, 48.1364098]}}, {"type": "Feature", "properties": {"name": "Pils Doktor", "description": "\nBar "}, "geometry": {"type": "Point", "coordinates": [11.5775404, 48.1364098]}}, {"type": "Feature", "properties": {"name": "Rooftop Bar TU München", "description": "\nRoof Deck, Bar, Event Space "}, "geometry": {"type": "Point", "coordinates": [11.5686102, 48.1485596]}}, {"type": "Feature", "properties": {"name": "Anna Bar", "description": "\nBar, Restaurant, Hotel "}, "geometry": {"type": "Point", "coordinates": [11.58748, 48.14008]}}, {"type": "Feature", "properties": {"name": "Executive Lounge | Hilton Munich Park", "description": "\nHotel Bar, Hotel "}, "geometry": {"type": "Point", "coordinates": [11.5979404, 48.1526794]}}, {"type": "Feature", "properties": {"name": "Sausalitos", "description": "\nMexican Restaurant, Cocktail Bar "}, "geometry": {"type": "Point", "coordinates": [11.5775404, 48.1364098]}}, {"type": "Feature", "properties": {"name": "Juliet Rose Bar", "description": "\nBar "}, "geometry": {"type": "Point", "coordinates": [11.5775404, 48.1364098]}}, {"type": "Feature", "properties": {"name": "Schall & Rauch", "description": "\nBar, Café "}, "geometry": {"type": "Point", "coordinates": [11.5775404, 48.1364098]}}, {"type": "Feature", "properties": {"name": "Lisboa Bar", "description": "\nPortuguese Restaurant, Bar "}, "geometry": {"type": "Point", "coordinates": [11.5775404, 48.1364098]}}, {"type": "Feature", "properties": {"name": "Riffraff", "description": "\nBar "}, "geometry": {"type": "Point", "coordinates": [11.5775404, 48.1364098]}}, {"type": "Feature", "properties": {"name": "Schluckauf", "description": "\nBar "}, "geometry": {"type": "Point", "coordinates": [11.5775404, 48.1364098]}}, {"type": "Feature", "properties": {"name": "Bubbles - Seafood & Wine Bar", "description": "\nWine Bar, Seafood Restaurant, Airport Terminal "}, "geometry": {"type": "Point", "coordinates": [11.5775404, 48.1364098]}}, {"type": "Feature", "properties": {"name": "Hoch3-Bar", "description": "\nHotel Bar, Hotel "}, "geometry": {"type": "Point", "coordinates": [11.58948, 48.13062]}}, {"type": "Feature", "properties": {"name": "Vitalgarten", "description": "\nBar, Airport Terminal "}, "geometry": {"type": "Point", "coordinates": [11.5775404, 48.1364098]}}]}