[{"type": "Feature", "properties": {"name": "Allianz Arena", "description": "\nSoccer Stadium "}, "geometry": {"type": "Point", "coordinates": [11.62429, 48.21695]}}, {"type": "Feature", "properties": {"name": "TonHalle", "description": "\nMusic Venue, General Entertainment "}, "geometry": {"type": "Point", "coordinates": [11.60805, 48.12441]}}, {"type": "Feature", "properties": {"name": "Viktualienmarkt", "description": "\nFarmers Market, Gourmet Shop "}, "geometry": {"type": "Point", "coordinates": [11.57611, 48.13528]}}, {"type": "Feature", "properties": {"name": "Messe München International", "description": "\nConvention Center, Event Space "}, "geometry": {"type": "Point", "coordinates": [11.57754, 48.13641]}}, {"type": "Feature", "properties": {"name": "Weltraumstudios", "description": "\nMusic Venue "}, "geometry": {"type": "Point", "coordinates": [11.57754, 48.13641]}}, {"type": "Feature", "properties": {"name": "Gaszählerwerkstatt", "description": "\nEvent Space "}, "geometry": {"type": "Point", "coordinates": [11.57754, 48.13641]}}, {"type": "Feature", "properties": {"name": "Zum fettigen Elmch", "description": "\nBrewery "}, "geometry": {"type": "Point", "coordinates": [11.57754, 48.13641]}}, {"type": "Feature", "properties": {"name": "Holiday Inn", "description": "\nHotel "}, "geometry": {"type": "Point", "coordinates": [11.57754, 48.13641]}}, {"type": "Feature", "properties": {"name": "Die Bierothek® München", "description": "\nBeer Store "}, "geometry": {"type": "Point", "coordinates": [11.57754, 48.13641]}}, {"type": "Feature", "properties": {"name": "Courtyard Munich City Center", "description": "\nHotel "}, "geometry": {"type": "Point", "coordinates": [11.55926, 48.13733]}}, {"type": "Feature", "properties": {"name": "Hilton Munich City", "description": "\nHotel "}, "geometry": {"type": "Point", "coordinates": [11.59246, 48.12962]}}, {"type": "Feature", "properties": {"name": "Käfer", "description": "\nBistro, Airport Terminal "}, "geometry": {"type": "Point", "coordinates": [11.59403, 48.16202]}}, {"type": "Feature", "properties": {"name": "Lufthansa Business Lounge (Schengen)", "description": "\nAirport Lounge, Airport Terminal "}, "geometry": {"type": "Point", "coordinates": [11.57754, 48.13641]}}, {"type": "Feature", "properties": {"name": "Hoffmann Estate", "description": "\nEvent Space "}, "geometry": {"type": "Point", "coordinates": [11.57754, 48.13641]}}, {"type": "Feature", "properties": {"name": "Munich Marriott Hotel", "description": "\nHotel "}, "geometry": {"type": "Point", "coordinates": [11.59325, 48.1747]}}, {"type": "Feature", "properties": {"name": "Bier- und Oktoberfestmuseum", "description": "\nHistory Museum "}, "geometry": {"type": "Point", "coordinates": [11.58019, 48.13529]}}, {"type": "Feature", "properties": {"name": "Lufthansa Senator Lounge II (Schengen)", "description": "\nAirport Lounge, Airport Terminal "}, "geometry": {"type": "Point", "coordinates": [11.57754, 48.13641]}}, {"type": "Feature", "properties": {"name": "Lufthansa Senator Lounge (Non-Schengen)", "description": "\nAirport Lounge, Airport Terminal "}, "geometry": {"type": "Point", "coordinates": [11.57754, 48.13641]}}, {"type": "Feature", "properties": {"name": "Craftbeer Oktoberfest", "description": "\nFestival, Concert Hall "}, "geometry": {"type": "Point", "coordinates": [11.54917, 48.13139]}}, {"type": "Feature", "properties": {"name": "Euro Youth Hostel", "description": "\nHostel "}, "geometry": {"type": "Point", "coordinates": [11.57754, 48.13641]}}, {"type": "Feature", "properties": {"name": "Hilton Munich Airport", "description": "\nHotel, Airport "}, "geometry": {"type": "Point", "coordinates": [11.78427, 48.3583]}}, {"type": "Feature", "properties": {"name": "Kiosk an der Reichenbachbrücke", "description": "\nFood & Drink Shop, Other Nightlife "}, "geometry": {"type": "Point", "coordinates": [11.57754, 48.13641]}}, {"type": "Feature", "properties": {"name": "Lufthansa Business Lounge (Non-Schengen)", "description": "\nAirport Lounge, Airport Terminal "}, "geometry": {"type": "Point", "coordinates": [11.57754, 48.13641]}}, {"type": "Feature", "properties": {"name": "Novotel Muenchen City", "description": "\nHotel "}, "geometry": {"type": "Point", "coordinates": [11.57754, 48.13641]}}, {"type": "Feature", "properties": {"name": "Lufthansa Business Lounge (Satellit Schengen)", "description": "\nAirport Lounge, Airport Terminal "}, "geometry": {"type": "Point", "coordinates": [11.57754, 48.13641]}}, {"type": "Feature", "properties": {"name": "Mercure Hotel München City Center", "description": "\nHotel "}, "geometry": {"type": "Point", "coordinates": [11.57754, 48.13641]}}, {"type": "Feature", "properties": {"name": "Zenith - Die Kulturhalle", "description": "\nConcert Hall, Event Space "}, "geometry": {"type": "Point", "coordinates": [11.57754, 48.13641]}}, {"type": "Feature", "properties": {"name": "Party Mansion Schlossbrauerei Untermenzing", "description": "\nBrewery "}, "geometry": {"type": "Point", "coordinates": [11.47743, 48.18024]}}, {"type": "Feature", "properties": {"name": "Getränke Oase", "description": "\nBeer Store "}, "geometry": {"type": "Point", "coordinates": [11.57754, 48.13641]}}, {"type": "Feature", "properties": {"name": "4 Urbs", "description": "\nBuffet, Airport Gate "}, "geometry": {"type": "Point", "coordinates": [11.57754, 48.13641]}}, {"type": "Feature", "properties": {"name": "MEININGER Hotel Munich City Center", "description": "\nHotel, Hostel "}, "geometry": {"type": "Point", "coordinates": [11.57754, 48.13641]}}, {"type": "Feature", "properties": {"name": "Hilton Munich Park", "description": "\nHotel "}, "geometry": {"type": "Point", "coordinates": [11.59794, 48.15268]}}, {"type": "Feature", "properties": {"name": "Hamburgerei", "description": "\nBurger Joint "}, "geometry": {"type": "Point", "coordinates": [11.56645, 48.18887]}}, {"type": "Feature", "properties": {"name": "Aloft Munich", "description": "\nHotel "}, "geometry": {"type": "Point", "coordinates": [11.55931, 48.13901]}}, {"type": "Feature", "properties": {"name": "Hofbräu München", "description": "\nBrewery "}, "geometry": {"type": "Point", "coordinates": [11.57754, 48.13641]}}, {"type": "Feature", "properties": {"name": "Courtyard Munich City East", "description": "\nHotel "}, "geometry": {"type": "Point", "coordinates": [11.60817, 48.13115]}}, {"type": "Feature", "properties": {"name": "The Westin Grand München", "description": "\nHotel "}, "geometry": {"type": "Point", "coordinates": [11.57754, 48.13641]}}, {"type": "Feature", "properties": {"name": "Le Méridien München", "description": "\nHotel "}, "geometry": {"type": "Point", "coordinates": [11.57754, 48.13641]}}, {"type": "Feature", "properties": {"name": "Hopfenhäcker", "description": "\nBrewery, Beer Store "}, "geometry": {"type": "Point", "coordinates": [11.57754, 48.13641]}}, {"type": "Feature", "properties": {"name": "Städtisches Stadion an der Grünwalder Straße", "description": "\nSoccer Stadium "}, "geometry": {"type": "Point", "coordinates": [11.57583, 48.11118]}}, {"type": "Feature", "properties": {"name": "Novotel Munich Airport", "description": "\nHotel, Airport "}, "geometry": {"type": "Point", "coordinates": [11.78427, 48.3583]}}, {"type": "Feature", "properties": {"name": "Wombats Hostel", "description": "\nHostel  "}, "geometry": {"type": "Point", "coordinates": [11.57754, 48.13641]}}, {"type": "Feature", "properties": {"name": "Spaten Brauerei", "description": "\nBrewery, Factory "}, "geometry": {"type": "Point", "coordinates": [11.57754, 48.13641]}}, {"type": "Feature", "properties": {"name": "Burger & Bier", "description": "\nBurger Joint "}, "geometry": {"type": "Point", "coordinates": [11.57754, 48.13641]}}, {"type": "Feature", "properties": {"name": "Leonardo Royal Hotel Munich", "description": "\nHotel "}, "geometry": {"type": "Point", "coordinates": [11.54348, 48.18699]}}, {"type": "Feature", "properties": {"name": "H Willibaldplatz", "description": "\nTram Station "}, "geometry": {"type": "Point", "coordinates": [11.48887, 48.14082]}}, {"type": "Feature", "properties": {"name": "L'Osteria", "description": "\nTrattoria/Osteria, Theater "}, "geometry": {"type": "Point", "coordinates": [11.57754, 48.13641]}}, {"type": "Feature", "properties": {"name": "Lufthansa Senator Lounge (Satellit Schengen)", "description": "\nAirport Lounge, Airport Terminal "}, "geometry": {"type": "Point", "coordinates": [11.57754, 48.13641]}}, {"type": "Feature", "properties": {"name": "Lufthansa Senator Lounge I (Schengen)", "description": "\nAirport Lounge, Airport Terminal "}, "geometry": {"type": "Point", "coordinates": [11.57754, 48.13641]}}, {"type": "Feature", "properties": {"name": "Lufthansa Senator Lounge (Satellit NON-Schengen)", "description": "\nAirport Lounge, Airport Terminal "}, "geometry": {"type": "Point", "coordinates": [11.57754, 48.13641]}}, {"type": "Feature", "properties": {"name": "S+U Hauptbahnhof", "description": "\nLight Rail Station, Metro Station, Train Station "}, "geometry": {"type": "Point", "coordinates": [11.57754, 48.13641]}}, {"type": "Feature", "properties": {"name": "Eden Hotel Wolff", "description": "\nHotel "}, "geometry": {"type": "Point", "coordinates": [11.55915, 48.14174]}}, {"type": "Feature", "properties": {"name": "Olympiahalle", "description": "\nConcert Hall, Event Space, Park "}, "geometry": {"type": "Point", "coordinates": [11.54809, 48.17508]}}, {"type": "Feature", "properties": {"name": "Paulaner Brauerei", "description": "\nBrewery, Factory "}, "geometry": {"type": "Point", "coordinates": [11.57754, 48.13641]}}, {"type": "Feature", "properties": {"name": "Sheraton Munich Westpark Hotel", "description": "\nHotel "}, "geometry": {"type": "Point", "coordinates": [11.54413, 48.13626]}}, {"type": "Feature", "properties": {"name": "BMW Museum", "description": "\nMuseum "}, "geometry": {"type": "Point", "coordinates": [11.55675, 48.17835]}}, {"type": "Feature", "properties": {"name": "arthotel münchen", "description": "\nHotel "}, "geometry": {"type": "Point", "coordinates": [11.57754, 48.13641]}}, {"type": "Feature", "properties": {"name": "Finest Spirits MVG Museum", "description": "\nFestival, Museum "}, "geometry": {"type": "Point", "coordinates": [11.60239, 48.10281]}}, {"type": "Feature", "properties": {"name": "Pullman Munich", "description": "\nHotel "}, "geometry": {"type": "Point", "coordinates": [11.5584, 48.14444]}}, {"type": "Feature", "properties": {"name": "Four Points by Sheraton Munich Central", "description": "\nHotel "}, "geometry": {"type": "Point", "coordinates": [11.57754, 48.13641]}}, {"type": "Feature", "properties": {"name": "Sportpark Heimstetten", "description": "\nSoccer Field "}, "geometry": {"type": "Point", "coordinates": [11.57754, 48.13641]}}, {"type": "Feature", "properties": {"name": "Internationales Congress Center München (ICM)", "description": "\nConvention Center, Event Space, Convention Center "}, "geometry": {"type": "Point", "coordinates": [11.57754, 48.13641]}}, {"type": "Feature", "properties": {"name": "Halle B1", "description": "\nConvention Center, Convention Center "}, "geometry": {"type": "Point", "coordinates": [11.57754, 48.13641]}}, {"type": "Feature", "properties": {"name": "Sofitel Munich Bayerpost", "description": "\nHotel "}, "geometry": {"type": "Point", "coordinates": [11.55679, 48.13952]}}, {"type": "Feature", "properties": {"name": "Südkurve", "description": "\nSoccer Stadium, Soccer Stadium "}, "geometry": {"type": "Point", "coordinates": [11.57754, 48.13641]}}, {"type": "Feature", "properties": {"name": "Max Emanuel Brauerei", "description": "\nBrewery "}, "geometry": {"type": "Point", "coordinates": [11.57754, 48.13641]}}, {"type": "Feature", "properties": {"name": "Jaeger's Hotel Hostel", "description": "\nHostel "}, "geometry": {"type": "Point", "coordinates": [11.57754, 48.13641]}}, {"type": "Feature", "properties": {"name": "NH München Messe", "description": "\nHotel "}, "geometry": {"type": "Point", "coordinates": [11.64296, 48.14]}}, {"type": "Feature", "properties": {"name": "H4 Hotel München Messe", "description": "\nHotel "}, "geometry": {"type": "Point", "coordinates": [11.57754, 48.13641]}}, {"type": "Feature", "properties": {"name": "Deutsches Museum", "description": "\nScience Museum "}, "geometry": {"type": "Point", "coordinates": [11.58333, 48.13048]}}, {"type": "Feature", "properties": {"name": "ibis München City", "description": "\nHotel "}, "geometry": {"type": "Point", "coordinates": [11.57754, 48.13641]}}, {"type": "Feature", "properties": {"name": "Finest Spirits", "description": "\nConvention "}, "geometry": {"type": "Point", "coordinates": [11.57754, 48.13641]}}, {"type": "Feature", "properties": {"name": "Tryp Hotel München", "description": "\nHotel "}, "geometry": {"type": "Point", "coordinates": [11.57754, 48.13641]}}, {"type": "Feature", "properties": {"name": "ibis Muenchen City Arnulfpark", "description": "\nHotel "}, "geometry": {"type": "Point", "coordinates": [11.54107, 48.14474]}}, {"type": "Feature", "properties": {"name": "Little London", "description": "\nSteakhouse "}, "geometry": {"type": "Point", "coordinates": [11.57754, 48.13641]}}, {"type": "Feature", "properties": {"name": "L'Osteria", "description": "\nTrattoria/Osteria, Train Station "}, "geometry": {"type": "Point", "coordinates": [11.57754, 48.13641]}}, {"type": "Feature", "properties": {"name": "S Flughafen München", "description": "\nLight Rail Station, Airport "}, "geometry": {"type": "Point", "coordinates": [11.57754, 48.13641]}}, {"type": "Feature", "properties": {"name": "KvR - Kapitales vom Rind", "description": "\nSteakhouse "}, "geometry": {"type": "Point", "coordinates": [11.57754, 48.13641]}}, {"type": "Feature", "properties": {"name": "Eurostars Grand Central Hotel", "description": "\nHotel "}, "geometry": {"type": "Point", "coordinates": [11.57754, 48.13641]}}, {"type": "Feature", "properties": {"name": "carathotel München", "description": "\n Hotel "}, "geometry": {"type": "Point", "coordinates": [11.57754, 48.13641]}}, {"type": "Feature", "properties": {"name": "Air France KLM Lounge", "description": "\nAirport Lounge, Airport Terminal "}, "geometry": {"type": "Point", "coordinates": [11.57754, 48.13641]}}, {"type": "Feature", "properties": {"name": "The Rilano", "description": "\nHotel "}, "geometry": {"type": "Point", "coordinates": [11.57754, 48.13641]}}, {"type": "Feature", "properties": {"name": "4 You München", "description": "\nHostel, Residential Building (Apartment / Condo) "}, "geometry": {"type": "Point", "coordinates": [11.58063, 49.55604]}}, {"type": "Feature", "properties": {"name": "A&O München Laim", "description": "\nHostel "}, "geometry": {"type": "Point", "coordinates": [11.50415, 48.13606]}}, {"type": "Feature", "properties": {"name": "Living Hotel Prinzessin Elisabeth", "description": "\nHotel "}, "geometry": {"type": "Point", "coordinates": [11.57754, 48.13641]}}, {"type": "Feature", "properties": {"name": "NH München Deutscher Kaiser", "description": "\nHotel "}, "geometry": {"type": "Point", "coordinates": [11.57754, 48.13641]}}, {"type": "Feature", "properties": {"name": "Motel One München-City-Süd", "description": "\nHotel "}, "geometry": {"type": "Point", "coordinates": [11.57754, 48.13641]}}, {"type": "Feature", "properties": {"name": "A&O München Hackerbrücke", "description": "\nHostel "}, "geometry": {"type": "Point", "coordinates": [11.54864, 48.1427]}}, {"type": "Feature", "properties": {"name": "Gute Nacht Wurst", "description": "\nCurrywurst Joint "}, "geometry": {"type": "Point", "coordinates": [11.57754, 48.13641]}}, {"type": "Feature", "properties": {"name": "Holiday Inn Express Munich City West", "description": "\nHotel "}, "geometry": {"type": "Point", "coordinates": [11.57754, 48.13641]}}, {"type": "Feature", "properties": {"name": "VI VADI HOTEL downtown munich", "description": "\nHotel "}, "geometry": {"type": "Point", "coordinates": [11.57754, 48.13641]}}, {"type": "Feature", "properties": {"name": "Platzl Hotel", "description": "\nHotel "}, "geometry": {"type": "Point", "coordinates": [11.57874, 48.13798]}}, {"type": "Feature", "properties": {"name": "NH München Airport", "description": "\nHotel "}, "geometry": {"type": "Point", "coordinates": [11.57754, 48.13641]}}, {"type": "Feature", "properties": {"name": "Sheraton Munich Arabellapark Hotel", "description": "\nHotel "}, "geometry": {"type": "Point", "coordinates": [11.61782, 48.15074]}}, {"type": "Feature", "properties": {"name": "Taco Libre", "description": "\nTaco Place, Burrito Place "}, "geometry": {"type": "Point", "coordinates": [11.57754, 48.13641]}}, {"type": "Feature", "properties": {"name": "Leonardo Hotel & Residenz München", "description": "\nHotel "}, "geometry": {"type": "Point", "coordinates": [11.57806, 48.14111]}}, {"type": "Feature", "properties": {"name": "Fräulein Grüneis", "description": "\nSnack Place "}, "geometry": {"type": "Point", "coordinates": [11.57754, 48.13641]}}, {"type": "Feature", "properties": {"name": "Spaten-Franziskaner Brau GmbH", "description": "\nBrewery "}, "geometry": {"type": "Point", "coordinates": [11.57754, 48.13641]}}, {"type": "Feature", "properties": {"name": "Feierwerk e.V.", "description": "\nConcert Hall "}, "geometry": {"type": "Point", "coordinates": [11.57754, 48.13641]}}, {"type": "Feature", "properties": {"name": "Hotel Cocoon Hauptbahnhof", "description": "\nHotel "}, "geometry": {"type": "Point", "coordinates": [11.56011, 48.1407]}}, {"type": "Feature", "properties": {"name": "Smart Stay Hostel Munich City", "description": "\nHostel "}, "geometry": {"type": "Point", "coordinates": [11.57754, 48.13641]}}, {"type": "Feature", "properties": {"name": "Motel One München-Deutsches Museum", "description": "\nHotel "}, "geometry": {"type": "Point", "coordinates": [11.58333, 48.13048]}}, {"type": "Feature", "properties": {"name": "Novotel München City Arnulfpark", "description": "\nHotel "}, "geometry": {"type": "Point", "coordinates": [11.53896, 48.1457]}}, {"type": "Feature", "properties": {"name": "Tierpark Hellabrunn", "description": "\nZoo "}, "geometry": {"type": "Point", "coordinates": [11.55128, 48.10063]}}, {"type": "Feature", "properties": {"name": "Atlantic Lounge", "description": "\nAirport Lounge, Airport Terminal "}, "geometry": {"type": "Point", "coordinates": [11.57754, 48.13641]}}, {"type": "Feature", "properties": {"name": "Fleming's Hotel München City", "description": "\nHotel "}, "geometry": {"type": "Point", "coordinates": [11.57754, 48.13641]}}, {"type": "Feature", "properties": {"name": "Szenedrinks & Delikatessen", "description": "\nBeer Store, Liquor Store "}, "geometry": {"type": "Point", "coordinates": [11.57754, 48.13641]}}, {"type": "Feature", "properties": {"name": "ibis Hotel München City West", "description": "\nHotel "}, "geometry": {"type": "Point", "coordinates": [11.57754, 48.13641]}}, {"type": "Feature", "properties": {"name": "mD-Hotel Amba", "description": "\nHotel "}, "geometry": {"type": "Point", "coordinates": [11.57754, 48.13641]}}, {"type": "Feature", "properties": {"name": "BA Galleries Lounge", "description": "\nAirport Lounge, Airport Terminal "}, "geometry": {"type": "Point", "coordinates": [11.57754, 48.13641]}}, {"type": "Feature", "properties": {"name": "Cinema Filmtheater", "description": "\nIndie Movie Theater "}, "geometry": {"type": "Point", "coordinates": [11.57754, 48.13641]}}, {"type": "Feature", "properties": {"name": "Bold Hotel", "description": "\nHotel "}, "geometry": {"type": "Point", "coordinates": [11.57754, 48.13641]}}, {"type": "Feature", "properties": {"name": "Mövenpick Hotel München-Airport", "description": "\nHotel, Business Center "}, "geometry": {"type": "Point", "coordinates": [11.57754, 48.13641]}}, {"type": "Feature", "properties": {"name": "Innside München Parkstadt Schwabing", "description": "\nHotel, Resort "}, "geometry": {"type": "Point", "coordinates": [11.5929, 48.18022]}}, {"type": "Feature", "properties": {"name": "Maritim Hotel München", "description": "\nHotel "}, "geometry": {"type": "Point", "coordinates": [11.55861, 48.13836]}}, {"type": "Feature", "properties": {"name": "H Prinz-Eugen-Park", "description": "\nTram Station "}, "geometry": {"type": "Point", "coordinates": [11.57481, 48.16904]}}, {"type": "Feature", "properties": {"name": "Hotel Europa", "description": "\nHotel "}, "geometry": {"type": "Point", "coordinates": [11.5584, 48.14444]}}, {"type": "Feature", "properties": {"name": "Rusticana", "description": "\nSteakhouse "}, "geometry": {"type": "Point", "coordinates": [11.57754, 48.13641]}}, {"type": "Feature", "properties": {"name": "Holiday Inn Munich - Westpark", "description": "\nHotel "}, "geometry": {"type": "Point", "coordinates": [11.60909, 48.14466]}}, {"type": "Feature", "properties": {"name": "Ruff's Burger", "description": "\nBurger Joint "}, "geometry": {"type": "Point", "coordinates": [11.57754, 48.13641]}}, {"type": "Feature", "properties": {"name": "NH München Ost Conference Center", "description": "\nHotel "}, "geometry": {"type": "Point", "coordinates": [11.68625, 48.14723]}}, {"type": "Feature", "properties": {"name": "Residence Inn Munich City East", "description": "\nHotel "}, "geometry": {"type": "Point", "coordinates": [11.60778, 48.13089]}}, {"type": "Feature", "properties": {"name": "Hotel Bayerischer Hof", "description": "\nHotel "}, "geometry": {"type": "Point", "coordinates": [11.57329, 48.14017]}}, {"type": "Feature", "properties": {"name": "Suite Novotel Parkstadt Schwabing", "description": "\nHotel "}, "geometry": {"type": "Point", "coordinates": [11.5929, 48.18022]}}, {"type": "Feature", "properties": {"name": "Novotel München Messe", "description": "\nHotel "}, "geometry": {"type": "Point", "coordinates": [11.57754, 48.13641]}}, {"type": "Feature", "properties": {"name": "S Rosenheimer Platz", "description": "\nLight Rail Station "}, "geometry": {"type": "Point", "coordinates": [11.59376, 48.12876]}}, {"type": "Feature", "properties": {"name": "Otto Pachmayr Getränke", "description": "\nLiquor Store "}, "geometry": {"type": "Point", "coordinates": [11.57754, 48.13641]}}, {"type": "Feature", "properties": {"name": "Fürstenlounge", "description": "\nAirport Lounge, Airport Terminal "}, "geometry": {"type": "Point", "coordinates": [11.57754, 48.13641]}}, {"type": "Feature", "properties": {"name": "Hotel Drei Löwen", "description": "\nHotel "}, "geometry": {"type": "Point", "coordinates": [11.57754, 48.13641]}}, {"type": "Feature", "properties": {"name": "Museum Lichtspiele", "description": "\nMovie Theater, Indie Movie Theater "}, "geometry": {"type": "Point", "coordinates": [11.5877, 48.13101]}}, {"type": "Feature", "properties": {"name": "EUROSTARS Book Hotel", "description": "\nHotel "}, "geometry": {"type": "Point", "coordinates": [11.57754, 48.13641]}}, {"type": "Feature", "properties": {"name": "Nero Pizza & Grill", "description": "\nPizza Place, Steakhouse "}, "geometry": {"type": "Point", "coordinates": [11.57754, 48.13641]}}, {"type": "Feature", "properties": {"name": "King's First Class Hotel", "description": "\nHotel "}, "geometry": {"type": "Point", "coordinates": [11.57754, 48.13641]}}, {"type": "Feature", "properties": {"name": "S Laim", "description": "\nLight Rail Station "}, "geometry": {"type": "Point", "coordinates": [11.50415, 48.13606]}}, {"type": "Feature", "properties": {"name": "Victor's Residenz-Hotel München", "description": "\nHotel "}, "geometry": {"type": "Point", "coordinates": [11.57754, 48.13641]}}, {"type": "Feature", "properties": {"name": "City Aparthotel", "description": "\nHotel "}, "geometry": {"type": "Point", "coordinates": [11.57754, 48.13641]}}, {"type": "Feature", "properties": {"name": "vitafy GmbH", "description": "\nTech Startup "}, "geometry": {"type": "Point", "coordinates": [11.57754, 48.13641]}}, {"type": "Feature", "properties": {"name": "Fleming's Hotel München-Schwabing", "description": "\nHotel "}, "geometry": {"type": "Point", "coordinates": [11.58155, 48.16475]}}, {"type": "Feature", "properties": {"name": "Leonardo Hotel Munich City Olympiapark", "description": "\nHotel "}, "geometry": {"type": "Point", "coordinates": [11.54513, 48.16073]}}, {"type": "Feature", "properties": {"name": "Block House", "description": "\n Steakhouse "}, "geometry": {"type": "Point", "coordinates": [11.57754, 48.13641]}}, {"type": "Feature", "properties": {"name": "S Hackerbrücke", "description": "\nLight Rail Station "}, "geometry": {"type": "Point", "coordinates": [11.54864, 48.1427]}}, {"type": "Feature", "properties": {"name": "Hamburgerei Zwei", "description": "\nBurger Joint "}, "geometry": {"type": "Point", "coordinates": [11.56241, 48.18881]}}, {"type": "Feature", "properties": {"name": "IntercityHotel München", "description": "\nHotel, Train Station "}, "geometry": {"type": "Point", "coordinates": [11.57754, 48.13641]}}, {"type": "Feature", "properties": {"name": "Ibis Styles München Ost", "description": "\nHotel "}, "geometry": {"type": "Point", "coordinates": [11.57754, 48.13641]}}, {"type": "Feature", "properties": {"name": "Technikum", "description": "\nConcert Hall, General Entertainment "}, "geometry": {"type": "Point", "coordinates": [11.60805, 48.12441]}}, {"type": "Feature", "properties": {"name": "Cimbernstr", "description": "\nDiner "}, "geometry": {"type": "Point", "coordinates": [11.50944, 48.10754]}}, {"type": "Feature", "properties": {"name": "ConceptLiving", "description": "\nBoarding House "}, "geometry": {"type": "Point", "coordinates": [11.57754, 48.13641]}}, {"type": "Feature", "properties": {"name": "Chez Mika", "description": "\nSpeakeasy "}, "geometry": {"type": "Point", "coordinates": [11.57754, 48.13641]}}, {"type": "Feature", "properties": {"name": "H Agnes-Bernauer-Straße", "description": "\nTram Station "}, "geometry": {"type": "Point", "coordinates": [11.50039, 48.1397]}}, {"type": "Feature", "properties": {"name": "Golden Tulip Hotel Olymp", "description": "\nHotel "}, "geometry": {"type": "Point", "coordinates": [11.57754, 48.13641]}}, {"type": "Feature", "properties": {"name": "S Obermenzing", "description": "\nLight Rail Station "}, "geometry": {"type": "Point", "coordinates": [11.46638, 48.162]}}, {"type": "Feature", "properties": {"name": "H2 Hotel München Messe", "description": "\nHotel "}, "geometry": {"type": "Point", "coordinates": [11.57754, 48.13641]}}, {"type": "Feature", "properties": {"name": "Mercure Hotel München Neuperlach Süd", "description": "\nHotel "}, "geometry": {"type": "Point", "coordinates": [11.64795, 48.10114]}}, {"type": "Feature", "properties": {"name": "H Regerplatz", "description": "\nTram Station "}, "geometry": {"type": "Point", "coordinates": [11.58807, 48.1247]}}, {"type": "Feature", "properties": {"name": "Leonardo Hotel Munich Arabellapark", "description": "\nHotel "}, "geometry": {"type": "Point", "coordinates": [11.62014, 48.16008]}}, {"type": "Feature", "properties": {"name": "Hotel Cristal", "description": "\nHotel "}, "geometry": {"type": "Point", "coordinates": [11.57754, 48.13641]}}, {"type": "Feature", "properties": {"name": "Regent Hotel", "description": "\nHotel "}, "geometry": {"type": "Point", "coordinates": [11.57754, 48.13641]}}, {"type": "Feature", "properties": {"name": "marc münchen", "description": "\nHotel "}, "geometry": {"type": "Point", "coordinates": [11.55989, 48.13799]}}, {"type": "Feature", "properties": {"name": "Halle C3", "description": "\nConvention Center, Convention Center "}, "geometry": {"type": "Point", "coordinates": [11.57754, 48.13641]}}, {"type": "Feature", "properties": {"name": "Hotel Prinzregent", "description": "\nHotel "}, "geometry": {"type": "Point", "coordinates": [11.57754, 48.13641]}}, {"type": "Feature", "properties": {"name": "Motel One München-Sendlinger Tor", "description": "\nHotel "}, "geometry": {"type": "Point", "coordinates": [11.56722, 48.13316]}}, {"type": "Feature", "properties": {"name": "Conrad-Hotel de Ville München", "description": "\nHotel "}, "geometry": {"type": "Point", "coordinates": [11.56075, 48.13829]}}, {"type": "Feature", "properties": {"name": "Cocoon Stachus", "description": "\nHotel "}, "geometry": {"type": "Point", "coordinates": [11.56581, 48.13945]}}, {"type": "Feature", "properties": {"name": "Adagio Aparthotel", "description": "\nBoarding House "}, "geometry": {"type": "Point", "coordinates": [11.57754, 48.13641]}}, {"type": "Feature", "properties": {"name": "BMW Welt Premium Lounge", "description": "\nLounge, Auto Dealership "}, "geometry": {"type": "Point", "coordinates": [11.57754, 48.13641]}}, {"type": "Feature", "properties": {"name": "Mercure Hotel München Altstadt", "description": "\nHotel "}, "geometry": {"type": "Point", "coordinates": [11.57496, 48.1384]}}, {"type": "Feature", "properties": {"name": "La Trattoria", "description": "\nTrattoria/Osteria "}, "geometry": {"type": "Point", "coordinates": [11.57754, 48.13641]}}, {"type": "Feature", "properties": {"name": "Deutsches Theater", "description": "\nTheater "}, "geometry": {"type": "Point", "coordinates": [11.56269, 48.13723]}}, {"type": "Feature", "properties": {"name": "Burger House", "description": "\nBurger Joint "}, "geometry": {"type": "Point", "coordinates": [11.61694, 48.16455]}}, {"type": "Feature", "properties": {"name": "L'Osteria", "description": "\nTrattoria/Osteria "}, "geometry": {"type": "Point", "coordinates": [11.57754, 48.13641]}}, {"type": "Feature", "properties": {"name": "Drunken Cow Bar & Grill", "description": "\nSteakhouse "}, "geometry": {"type": "Point", "coordinates": [11.57754, 48.13641]}}, {"type": "Feature", "properties": {"name": "H Hauptbahnhof", "description": "\nTram Station, Bus Stop, Train Station "}, "geometry": {"type": "Point", "coordinates": [11.57754, 48.13641]}}, {"type": "Feature", "properties": {"name": "H Hauptbahnhof Süd", "description": "\nTram Station "}, "geometry": {"type": "Point", "coordinates": [11.57754, 48.13641]}}, {"type": "Feature", "properties": {"name": "Adagio München City Aparthotel", "description": "\nHotel "}, "geometry": {"type": "Point", "coordinates": [11.57754, 48.13641]}}, {"type": "Feature", "properties": {"name": "Citadines Apart Hotel", "description": "\nHotel "}, "geometry": {"type": "Point", "coordinates": [11.57754, 48.13641]}}, {"type": "Feature", "properties": {"name": "KING's Hotel Center", "description": "\nHotel "}, "geometry": {"type": "Point", "coordinates": [11.57754, 48.13641]}}, {"type": "Feature", "properties": {"name": "K+K Hotel am Harras", "description": "\nHotel "}, "geometry": {"type": "Point", "coordinates": [11.53842, 48.11706]}}, {"type": "Feature", "properties": {"name": "Freiheizhalle", "description": "\nMusic Venue, Event Space, Building "}, "geometry": {"type": "Point", "coordinates": [11.57754, 48.13641]}}, {"type": "Feature", "properties": {"name": "S+U Marienplatz", "description": "\nLight Rail Station, Metro Station "}, "geometry": {"type": "Point", "coordinates": [11.5756, 48.13737]}}, {"type": "Feature", "properties": {"name": "Hotel Herzog", "description": "\nHotel "}, "geometry": {"type": "Point", "coordinates": [11.57754, 48.13641]}}, {"type": "Feature", "properties": {"name": "Nationaltheater München", "description": "\nOpera House, Concert Hall, Theater "}, "geometry": {"type": "Point", "coordinates": [11.57857, 48.13977]}}, {"type": "Feature", "properties": {"name": "HI Munich Park Hostel - DJH Jugendherberge München Park", "description": "\nHostel "}, "geometry": {"type": "Point", "coordinates": [11.57754, 48.13641]}}, {"type": "Feature", "properties": {"name": "Rubenbauer", "description": "\nSnack Place, Bakery, Bagel Shop, Train Station "}, "geometry": {"type": "Point", "coordinates": [11.57754, 48.13641]}}]